time,imu_roll,imu_pitch,imu_yaw,gyro_roll_rate,gyro_pitch_rate,gyro_yaw_rate,gps_x,gps_y,gps_altitude,motor_fl,motor_fr,motor_rl,motor_rr,target_altitude,current_altitude,roll_disturbance,pitch_disturbance,yaw_disturbance
0.008,-4.615679991084151e-20,-5.559703648971096e-19,3.141590777218456,-5.7376950740937945e-18,-6.911199281956714e-17,1.4215840790187042e-17,0.0,-1.9905274260476058e-20,0.09937216000000001,576,576,576,576,1.0,0.09937216000000001,0,0,0
0.016,9.362230210162204e-10,6.246723797438764e-10,3.141590777295125,1.1638073320597934e-07,7.765225592974723e-08,9.530600813674865e-09,-2.274833099669138e-11,2.9472407970637773e-11,0.09811995937527307,78.30142572990216,78.30142605628593,78.30142553711731,78.30142586350108,1.0,0.09811995937527307,0,0,0
0.024,5.612031688044933e-09,3.749859396721265e-09,3.1415907776780285,5.812440291188551e-07,3.884881576444482e-07,4.759827762408758e-08,-1.3655601649453786e-10,1.766676909461348e-10,0.09624687331204512,78.70820969553532,78.70821141922653,78.70820869356743,78.70821041725864,1.0,0.09624687331204512,0,0,0
0.032,1.8687475088027323e-08,1.2500888916683943e-08,3.141590778748769,1.6253922993506872e-06,1.0878297269648565e-06,1.3310239642727127e-07,-4.5523612657305534e-10,5.882858598017637e-10,0.09375637283003052,79.11899797604914,79.11900309558126,79.11899505033637,79.11900016986849,1.0,0.09375637283003052,0,0,0
0.04,4.666902369660367e-08,3.124557892300386e-08,3.141590781040143,3.4783519143332578e-06,2.3301293883470123e-06,2.848378379327914e-07,-1.137849231502841e-09,1.469154499345008e-09,0.09065192480548259,79.53375822298133,79.53376984658752,79.53375168798783,79.53376331159402,1.0,0.09065192480548259,0,0,0
0.048,9.789936106579906e-08,6.5587288718433e-08,3.1415907852353087,6.368380255342209e-06,4.268975779294274e-06,5.214955734269904e-07,-2.3884525190975836e-09,3.0819105149903593e-09,0.08693699199411548,79.95245806040944,79.95248058710607,79.95244558722055,79.95246811391718,1.0,0.08693699199411548,0,0,0
0.056,2.1536146803947046e-06,-0.0344437463783391,3.141590755254745,0.00025547925553283277,-4.282091292869109,1.093747272648585e-06,0.0024525719166473836,1.4512782279690894e-07,0.08679823239426263,72.40297558175654,72.40370190173563,83.03378295019509,83.03450927017418,1.0,0.08679823239426263,0,0,0
0.064,-2.374828820741648e-07,-0.06868396477627811,-3.141590442263963,-0.0002708999453517071,-4.256775362651341,0.0005143409374048679,0.004959216831780439,-1.1728536875592777e-07,0.08598618620580004,71.83065547388092,71.83008992570201,84.46524408576029,84.46467853758138,1.0,0.08598618620580004,0,0,0
0.07200000000000001,-7.043380132591838e-06,-0.10272608823764186,-3.1415821555424333,-0.0007578421997186776,-4.232143251502398,0.0010110730797956297,0.007517629826125291,-7.67174911826814e-07,0.08450343115089817,71.26887171037934,71.26665168796664,85.89672350764265,85.89450348522995,1.0,0.08450343115089817,0,0,0
0.08,-6.320863113227444e-06,-0.08138861211994201,-3.1415827249062405,8.330849601115284e-05,2.6525360743663042,-5.275666795030231e-05,0.006042059364459673,-6.675953145028643e-07,0.0845100155173869,77.86189506119838,77.86142959187909,77.44013963966229,77.439674170343,1.0,0.0845100155173869,0,0,0
0.088,-5.834785003288452e-06,-0.07464677144352375,-3.1415828011005873,5.9685563349383475e-05,0.8380731037456369,-4.349207216687441e-06,0.005605255294928266,-6.428239695246181e-07,0.08553459055472254,75.60319671024472,75.60273260287109,78.40585678936488,78.40539268199124,1.0,0.08553459055472254,0,0,0
0.096,-5.399690579874383e-06,-0.06794066305216816,-3.1415827684308075,5.437534327278764e-05,0.8336312170172553,8.73355109522576e-06,0.005173771428471016,-6.261864388503766e-07,0.08592449301131985,76.19269296915141,76.19226175077998,78.601870318247,78.60143909987556,1.0,0.08592449301131985,0,0,0
0.10400000000000001,-4.954841226769096e-06,-0.061271700376840744,-3.1415826164174625,5.651867074023039e-05,0.8290136270057064,2.3149297866410954e-05,0.004747632282320516,-6.161808547976229e-07,0.0856836374029731,76.78475222027807,76.78436977349686,78.80302698887711,78.8026445420959,1.0,0.0856836374029731,0,0,0
0.112,-4.655699372544073e-06,-0.06360458582602942,-3.1415826213000018,3.714808451198395e-05,-0.28999825478527436,-1.999280128070677e-06,0.004902343013649377,-5.940044810541633e-07,0.08584590013383818,75.34218659918892,75.34179532542069,79.73845825832123,79.738066984553,1.0,0.08584590013383818,0,0,0
0.12,-3.602564477676596e-06,-0.06808781746699065,-3.1415826692444355,0.0001305217494279273,-0.5573059492025783,-8.248202797555256e-06,0.005199552492795315,-5.200987137582838e-07,0.085628837404067,75.17948496532848,75.17938575237956,80.37936591175308,80.37926669880416,1.0,0.085628837404067,0,0,0
0.128,-2.678528459346219e-06,-0.07607335966660635,-3.14158270619702,0.00011453496150520793,-0.992678212426454,-7.69919103246774e-06,0.005727966121491887,-4.5207276483668175e-07,0.0851883286399566,74.64857508020626,74.64853629728333,81.19833308505554,81.19829430213261,1.0,0.0851883286399566,0,0,0
0.136,-1.8900972510675634e-06,-0.0726014310757462,-3.1415827665613167,9.745161355052474e-05,0.43159160998197804,-6.497208853904915e-06,0.005497457570195069,-4.025082656571578e-07,0.08542172007083301,75.7534588859525,75.75346477945449,79.24636153053332,79.24636742403531,1.0,0.08542172007083301,0,0,0
0.14400000000000002,-1.3064573687684957e-06,-0.07198357673442368,-3.1415828081294204,7.217832619813384e-05,0.07680471633026179,-5.031028183599926e-06,0.005456905444438026,-3.646065529122866e-07,0.08548287956865644,75.52423707701362,75.52425078792913,79.68964224841852,79.68965595933403,1.0,0.08548287956865644,0,0,0
0.152,-8.241160142021161e-07,-0.07153256370526559,-3.141582844164488,5.9638098329213445e-05,0.056064876352674584,-4.408221960454315e-06,0.005427191665545339,-3.331808477685595e-07,0.08552841236155809,75.52632741371796,75.52636427831321,79.70615148332855,79.7061883479238,1.0,0.08552841236155809,0,0,0
0.16,-4.367425257160827e-07,-0.07117295156394882,-3.141582871608735,4.791070454816178e-05,0.044702943837913144,-3.3746977632301085e-06,0.005403526334302161,-3.0799135048992663e-07,0.08556470703647817,75.53115708115129,75.53120922830783,79.7121282873124,79.71218043446893,1.0,0.08556470703647817,0,0,0
0.168,-1.264893105814329e-07,-0.07088551292504916,-3.1415828934764947,3.837427558910812e-05,0.035731144210494774,-2.7014375282850302e-06,0.00538461341583682,-2.878188289057983e-07,0.0855937027565774,75.53507435402119,75.53513845364131,79.71674284110316,79.71680694072327,1.0,0.0855937027565774,0,0,0
0.176,1.2196534793063294e-07,-0.07065576083582167,-3.1415829109163536,3.073179570122966e-05,0.02856019999152665,-2.1624361303509357e-06,0.005369497969011747,-2.716657495334398e-07,0.08561687154159493,75.53820133880188,75.53827499892807,79.72042658896814,79.72050024909433,1.0,0.08561687154159493,0,0,0
0.184,3.2092250597441254e-07,-0.07047212376803597,-3.141582924835746,2.4610124146338425e-05,0.022827698285705165,-1.7310515697328938e-06,0.005357417600324557,-2.587315172317362e-07,0.08563538651774193,75.54069760372587,75.54077891622475,79.72336963323662,79.7234509457355,1.0,0.08563538651774193,0,0,0
0.192,4.80238647015092e-07,-0.07032534726870968,-3.1415829359523695,1.970719046441632e-05,0.01824560628748828,-1.3857797540907644e-06,0.005347762811346635,-2.4837483468177725e-07,0.0856501842438285,75.54269104786097,75.5427784861066,79.72572067140858,79.72580810965421,1.0,0.0856501842438285,0,0,0
0.2,6.078093933820183e-07,-0.07020803175322657,-3.141582944835128,1.578063772566724e-05,0.014583347574931226,-1.1094136280622006e-06,0.005340046414789912,-2.400821096763402e-07,0.0856620126093601,75.54428336931988,75.54437571153468,79.72759857936362,79.72769092157841,1.0,0.0856620126093601,0,0,0
0.20800000000000002,7.099586422890102e-07,-0.07011426180506214,-3.1415829519358303,1.263616858346298e-05,0.01165642702890156,-8.881881761575761e-07,0.005333879036262021,-2.3344206563583585e-07,0.08567146893648303,75.5455555449597,75.54565181316109,79.72909839920563,79.72919466740701,1.0,0.08567146893648303,0,0,0
0.216,7.917510434863027e-07,-0.07003930904544306,-3.141582957613859,1.0118091136428476e-05,0.009317285441447571,-7.110923622024677e-07,0.005328949497614199,-2.2812537056583633e-07,0.08567903034815114,75.54657212266076,75.54667153394738,79.73029609450444,79.73039550579105,1.0,0.08567903034815114,0,0,0
0.224,8.572425116185117e-07,-0.06997939421982763,-3.141582962155445,8.101671790522266e-06,0.007447938343732981,-5.693168177683307e-07,0.005325009122311805,-2.2386831647900363e-07,0.08568507798898951,75.54738459253768,75.54748652013244,79.73125236903986,79.73135429663462,1.0,0.08568507798898951,0,0,0
0.232,9.096810128624776e-07,-0.06993149682915388,-3.1415829657887966,6.486995516521373e-06,0.005954065773529182,-4.558128702803403e-07,0.005321859185206737,-2.2045974549023517e-07,0.08568991635226136,75.54803404928526,75.54813799137759,79.73201572748744,79.73211966957976,1.0,0.08568991635226136,0,0,0
0.24,9.516674825555856e-07,-0.06989320287338863,-3.141582968696015,5.194041207982411e-06,0.004760274581372575,-3.649402309688637e-07,0.005319340879991835,-2.1773057592596805e-07,0.08569378870731123,75.54855330198504,75.5486588568157,79.73262492522562,79.73273048005629,1.0,0.08569378870731123,0,0,0
0.248,9.852846600448527e-07,-0.06986258310974526,-3.1415829710225136,4.1587174847891865e-06,0.0038063051894099125,-2.9218470202633984e-07,0.005317327300591729,-2.1554541987944043e-07,0.0856968894171607,75.54896855111906,75.54907539702003,79.73311092732496,79.73321777322593,1.0,0.0856968894171607,0,0,0
0.256,1.0122003444878512e-06,-0.06983809572932947,-3.1415829728844713,3.3297014013234103e-06,0.0030439961664767753,-2.3393343519628654e-07,0.005315717032969708,-2.1379586630767117e-07,0.08569937377512783,75.54930072308724,75.5494086025245,79.73349847451405,79.7336063539513,1.0,0.08569937377512783,0,0,0
0.264,1.0337500222486359e-06,-0.06981850856297057,-3.141582974374752,2.6658884328113103e-06,0.0024348565789829835,-1.872942468359589e-07,0.005314429034147472,-2.1239510761562758e-07,0.08570136586128832,75.54956653383714,75.54967524061622,79.73380733445741,79.7339160412365,1.0,0.08570136586128832,0,0,0
0.272,1.051003103054211e-06,-0.06980283690213467,-3.1415829755676095,2.13436596475038e-06,0.0019481248992420886,-1.4995219438243147e-07,0.005313398539970912,-2.1127363239254202e-07,0.08570296481792052,75.54977933723974,75.54988870628198,79.73405330156935,79.73416267061158,1.0,0.08570296481792052,0,0,0
0.28,1.0648158967207789e-06,-0.06979029380366504,-3.1415829765224355,1.7087737494250126e-06,0.0015592171562433242,-1.200537589051276e-07,0.005312573795024811,-2.1037578132032928e-07,0.08570424986272066,75.54994980185043,75.55005970098759,79.73424899575784,79.734358894895,1.0,0.08570424986272066,0,0,0
0.28800000000000003,1.0758741026567428e-06,-0.06978025037272306,-3.141582977286744,1.368007055410081e-06,0.0012484865577754734,-9.611529335938394e-08,0.005311913439486213,-2.0965698463402375e-07,0.08570528429370813,75.55008645135962,75.55019677478398,79.73440450060744,79.7345148240318,1.0,0.08570528429370813,0,0,0
0.296,1.084726770648725e-06,-0.06977220402113261,-3.1415829778985533,1.0951618753397978e-06,0.0010002320778430042,-7.69487286121744e-08,0.005311384420931889,-2.09081554733405e-07,0.08570611868890204,75.55019609605823,75.55030675905904,79.7345278731705,79.73463853617132,1.0,0.08570611868890204,0,0,0
0.304,1.0918135408371905e-06,-0.06976575310074722,-3.1415829783882883,8.76703718654808e-07,0.00080190598540609,-6.160291931715074e-08,0.005310960325683692,-2.0862091534185906e-07,0.08570679346278798,75.55028417727567,75.5503951120372,79.7346255513497,79.73473648611122,1.0,0.08570679346278798,0,0,0
0.312,1.0974864636441724e-06,-0.06976057663033917,-3.141582978780301,7.017972154690717e-07,0.0006434806749259296,-4.9316503883741775e-08,0.005310620045301251,-2.0825218326419133e-07,0.08570734090877336,75.55035504281571,75.55046619505652,79.73470267928622,79.73481383152702,1.0,0.08570734090877336,0,0,0
0.32,1.1020273954618836e-06,-0.06975641809469056,-3.1415829790940824,5.617588757441132e-07,0.0005169424559433211,-3.947942548365418e-08,0.0053103467109914815,-2.0795703779392257e-07,0.08570778683125141,75.55041216662528,75.55052349288258,79.73476336739483,79.73487469365213,1.0,0.08570778683125141,0,0,0
0.328,1.1056620591392994e-06,-0.0697530724970999,-3.141582979345236,4.4964455299151807e-07,0.00041588712500379213,-3.16037880841654e-08,0.005310126842043322,-2.077208066758692e-07,0.08570815184953644,75.55045832454105,75.55056979003608,79.73481090011704,79.73492236561206,1.0,0.08570815184953644,0,0,0
0.336,1.1085711502280488e-06,-0.06975037601208642,-3.1415829795462518,3.59883994411109e-07,0.00033519673824351206,-2.529835632115009e-08,0.005309949665301433,-2.0753174440321212e-07,0.08570845243978387,75.55049573463164,75.55060731151464,79.73484790188034,79.73495947876334,1.0,0.08570845243978387,0,0,0
0.34400000000000003,1.110899388882535e-06,-0.06974819771698954,-3.14158297970713,2.8802673055586645e-07,0.00027078118652867564,-2.0250429415292426e-08,0.0053098065713834686,-2.0738044373479432e-07,0.08570870176757814,75.55052616913346,75.5506378351258,79.73487646977978,79.73498813577211,1.0,0.08570870176757814,0,0,0
0.352,1.1127626082556306e-06,-0.06974643298306239,-3.1415829798358748,2.3049917410478923e-07,0.0002193719057586246,-1.620907178106109e-08,0.005309690680042556,-2.0725937512450963e-07,0.08570891035308278,75.55055104431307,75.55066278157224,79.7348982794853,79.73501001674447,1.0,0.08570891035308278,0,0,0
0.36,1.1142535913180697e-06,-0.0697449981951983,-3.141582979938896,1.844498009880899e-07,0.00017835671613866498,-1.2973914181445045e-08,0.005309596492917235,-2.0716250720909278e-07,0.08570908660267634,75.55057149170806,75.5506832859668,79.73491466998767,79.73502646424642,1.0,0.08570908660267634,0,0,0
0.368,1.1154465843450962e-06,-0.06974382653101946,-3.1415829800213237,1.4758544035079823e-07,0.00014564813418330868,-1.0383954791800495e-08,0.005309519615950262,-2.0708501359623205e-07,0.08570923723363512,75.5505884156034,75.55070025543272,79.7349267111962,79.73503855102551,1.0,0.08570923723363512,0,0,0
0.376,1.116401070239468e-06,-0.06974286458843285,-3.1415829800872674,1.180797209844573e-07,0.00011957790078711491,-8.310864566076945e-09,0.00530945653760953,-2.070230274526545e-07,0.08570936761353214,75.55060253854363,75.55071441481009,79.73493525804803,79.73504713431448,1.0,0.08570936761353214,0,0,0
0.384,1.1171646361411478e-06,-0.06974206969036116,-3.141582980140014,9.44610148535161e-08,9.881280242352735e-05,-6.651314333983415e-09,0.005309404451643129,-2.0697345527084328e-07,0.08570948203147963,75.55061443786674,75.55072634325238,79.73494099368357,79.7350528990692,1.0,0.08570948203147963,0,0,0
0.392,1.117775400703639e-06,-0.06974140773045653,-3.141582980182198,7.555797535988124e-08,8.228742224048317e-05,-5.323024130970477e-09,0.005309361115409653,-2.0693381900782494e-07,0.08570958391475589,75.5506245749853,75.55073650364133,79.73494446396822,79.73505639262424,1.0,0.08570958391475589,0,0,0
0.4,1.1182638808283777e-06,-0.06974085145218259,-3.1415829802159267,6.043019165393294e-08,6.915026861493519e-05,-4.259923325565598e-09,0.005309324736710724,-2.0690213470533851e-07,0.08570967600204363,75.55063331850367,75.55074526575213,79.73494610509739,79.73505805234585,1.0,0.08570967600204363,0,0,0
0.40800000000000003,1.1186544922308638e-06,-0.06974037907268898,-3.1415829802428883,4.832287578026052e-08,5.8720914327823266e-05,-3.4090274262645257e-09,0.005309293883295166,-2.0687681513915348e-07,0.08570976048173974,75.5506409630587,75.55075292515366,79.73494626559139,79.73505822768635,1.0,0.08570976048173974,0,0,0
0.41600000000000004,1.118966797182646e-06,-0.06973997318370466,-3.141582980264433,3.8635618568592564e-08,5.045556083808924e-05,-2.728147941127624e-09,0.0053092674105819915,-2.0685658844756241e-07,0.08570983910252557,75.55064774405778,75.55075971800875,79.73494522395839,79.73505719790936,1.0,0.08570983910252557,0,0,0
0.424,1.1192164380609285e-06,-0.06973961987301701,-3.141582980281642,3.088347777895331e-08,4.3919617387389175e-05,-2.1832291555273928e-09,0.005309244403889121,-2.0684043773859506e-07,0.08570991326176214,75.55065384958104,75.5507658329918,79.7349432027273,79.73505518613806,1.0,0.08570991326176214,0,0,0
0.432,1.1194159524324561e-06,-0.06973930802215224,-3.1415829802953823,2.4682365349873258e-08,3.876579775715931e-05,-1.747289902942263e-09,0.005309224132248255,-2.0682754781405536e-07,0.08570998407601221,75.55065942998675,75.55077142094672,79.73494037972037,79.73505237068034,1.0,0.08570998407601221,0,0,0
0.44,1.119575358628228e-06,-0.06973902874548868,-3.1415829803063464,1.972061841134668e-08,3.4716538840799296e-05,-1.3984441239610298e-09,0.005309206011521725,-2.068172673958214e-07,0.08571005243752733,75.55066460536341,75.5507766023405,79.73493689701505,79.73504889399214,1.0,0.08571005243752733,0,0,0
0.448,1.1197026921308006e-06,-0.06973877494178106,-3.1415829803150888,1.575294224107959e-08,3.155002698893476e-05,-1.1194442765185249e-09,0.005309189574910944,-2.0680907397297897e-07,0.08571011905927423,75.55066947170153,75.55078147347663,79.7349328681544,79.73504486992951,1.0,0.08571011905927423,0,0,0
0.456,1.1198043659693146e-06,-0.06973854093557377,-3.1415829803220534,1.257862323317429e-08,2.9089024055987642e-05,-8.962254136319683e-10,0.005309174449375259,-2.0680255064592828e-07,0.08571018451095362,75.55067410575074,75.55078611134459,79.73492838383706,79.7350403894309,1.0,0.08571018451095362,0,0,0
0.464,1.1198855304842323e-06,-0.06973832219137277,-3.1415829803275956,1.0041451132621064e-08,2.7191822805197214e-05,-7.177677952460028e-10,0.005309160336837135,-2.0679736247911533e-07,0.08571024924783714,75.55067856873308,75.55079057736901,79.73492351656984,79.73503552520577,1.0,0.08571024924783714,0,0,0
0.47200000000000003,1.1199502921950774e-06,-0.06973811508407968,-3.1415829803320006,8.012294780972195e-09,2.574525308373618e-05,-5.75043136567928e-10,0.005309146999084982,-2.067932425152022e-07,0.0857103136336845,75.5506829097123,75.5507949207661,79.73491832425091,79.73503033530471,1.0,0.0857103136336845,0,0,0
0.48,1.1200019370215204e-06,-0.06973791671672352,-3.1415829803354947,6.389638625367944e-09,2.465880227153252e-05,-4.6089954663751933e-10,0.005309134245788064,-2.0678997708483886e-07,0.08571037795920347,75.55068716777272,75.5507991807457,79.7349128531716,79.73502486614457,1.0,0.08571037795920347,0,0,0
0.488,1.1200431155913242e-06,-0.0697377247739637,-3.1415829803382613,5.09489433855009e-09,2.386016859238878e-05,-3.697916759283271e-10,0.005309121924863144,-2.0678739380819054e-07,0.08571044245668065,75.55069137420892,75.55080338871028,79.73490714030956,79.73501915481091,1.0,0.08571044245668065,0,0,0
0.496,1.1200759117176875e-06,-0.06973753740514113,-3.1415829803404445,4.057933347581976e-09,2.3291588072836475e-05,-2.9685383895909397e-10,0.0053091099147829085,-2.0678535722377595e-07,0.08571050731171682,75.55069555406558,75.55080756977262,79.73490121519791,79.73501323090494,1.0,0.08571050731171682,0,0,0
0.504,1.1201020326272826e-06,-0.06973735313146197,-3.141582980342163,3.2321738707775457e-09,2.2906834599462044e-05,-2.387334033770437e-10,0.005309098118474048,-2.0678375628111078e-07,0.08571057267265825,75.55069972724196,75.55081174390956,79.73489510146048,79.73500711812808,1.0,0.08571057267265825,0,0,0
0.512,1.120122803077531e-06,-0.06973717077067555,-3.141582980343508,2.5702984975082773e-09,2.266904525348207e-05,-1.921868307416269e-10,0.005309086458362672,-2.0678250486918427e-07,0.08571063865800727,75.55070390979128,75.5508159272122,79.73488881794131,79.73500083536223,1.0,0.08571063865800727,0,0,0
0.52,1.1201393229089765e-06,-0.06973698937817487,-3.141582980344556,2.0444842981576497e-09,2.2548678842723053e-05,-1.5517928800531603e-10,0.005309074872502373,-2.0678153142950806e-07,0.08571070536249273,75.55070811439467,75.55082013241594,79.73488237972748,79.73499439774875,1.0,0.08571070536249273,0,0,0
0.528,1.1201524312481356e-06,-0.06973680819877193,-3.141582980345364,1.622477634512608e-09,2.2522188928313012e-05,-1.2551090942407636e-10,0.00530906331140224,-2.0678078143042268e-07,0.08571077286179629,75.55071235129903,75.5508243697871,79.73487579884748,79.73498781733555,1.0,0.08571077286179629,0,0,0
0.536,1.1201628384362183e-06,-0.06973662662889005,-3.141582980345983,1.2883441064491664e-09,2.2570728883470086e-05,-1.0201102308395642e-10,0.005309051735540832,-2.0678020863604876e-07,0.085710841216382,75.550716628652,75.55082864751253,79.73486908492762,79.73498110378816,1.0,0.085710841216382,0,0,0
0.544,1.120171072914552e-06,-0.06973644418617567,-3.141582980346449,1.0195852749690144e-09,2.2679229616485555e-05,-8.31363957999742e-11,0.005309040113368302,-2.0677977871901704e-07,0.08571091047459829,75.55072095293997,75.55083297208643,79.73486224565127,79.73497426479773,1.0,0.08571091047459829,0,0,0
0.552,1.120177595990482e-06,-0.06973626048496896,-3.1415829803467927,8.078946729816666e-10,2.2835671253576202e-05,-6.826653694302584e-11,0.005309028419692857,-2.067794616343561e-07,0.0857109806750444,75.55072532940522,75.55083734878062,79.73485528716085,79.73496730653625,1.0,0.0857109806750444,0,0,0
0.56,1.1201827369537537e-06,-0.06973607521708017,-3.1415829803470388,6.369368846063915e-10,2.3030423578929888e-05,-5.629129558440034e-11,0.005309016634416977,-2.0677923600649689e-07,0.0857110518485965,75.55072976218139,75.55084178172896,79.73484821435903,79.7349602339066,1.0,0.0857110518485965,0,0,0
0.5680000000000001,1.1201867982538959e-06,-0.06973588813618825,-3.141582980347207,5.033967065345668e-10,2.3255795766022016e-05,-4.6926644214131884e-11,0.0053090047415114,-2.0677908212302074e-07,0.08571112401991594,75.55073425459298,75.55084627427959,79.73484103117275,79.73495305085936,1.0,0.08571112401991594,0,0,0
0.5760000000000001,1.120189984782925e-06,-0.06973569904520369,-3.1415829803473123,3.95202254263861e-10,2.3505667914236827e-05,-3.9385733746632806e-11,0.005308992728184067,-2.0677898667818337e-07,0.08571119720869391,75.55073880934422,75.5508508291331,79.73483374072062,79.73494576050949,1.0,0.08571119720869391,0,0,0
0.584,1.1201924824986355e-06,-0.06973550778680995,-3.1415829803473674,3.100119770986527e-10,2.3775095887050716e-05,-3.3450461510203334e-11,0.005308980584258188,-2.0677893759216286e-07,0.08571127143070004,75.55074342849665,75.55085544836493,79.73482634551345,79.73493836538174,1.0,0.08571127143070004,0,0,0
0.592,1.120194438755324e-06,-0.06973531423506288,-3.1415829803473825,2.430494462639659e-10,2.406017982078778e-05,-2.8808066634544872e-11,0.0053089683016199485,-2.0677892522094195e-07,0.08571134669849907,75.55074811380351,75.5508601337335,79.73481884754764,79.73493086747763,1.0,0.08571134669849907,0,0,0
0.6,1.1201959575109438e-06,-0.06973511828936699,-3.1415829803473647,1.8894930118194627e-10,2.4357768653152728e-05,-2.5081471427229828e-11,0.00530895587382238,-2.067789428680321e-07,0.08571142302216345,75.55075286658902,75.55086488656266,79.73481124841373,79.73492326838738,1.0,0.08571142302216345,0,0,0
0.608,1.1201971389327528e-06,-0.06973491986932664,-3.1415829803473208,1.4723870808603824e-10,2.4665351374208892e-05,-2.2219233153081413e-11,0.005308943295746646,-2.0677898394851275e-07,0.0857115004097303,75.55075768794077,75.55086970794915,79.73480354939761,79.73491556940598,1.0,0.0857115004097303,0,0,0
0.616,1.1201980449377019e-06,-0.06973471891046039,-3.1415829803472564,1.1318661454877175e-10,2.4980949702596697e-05,-1.992297454483378e-11,0.0053089305633200745,-2.0677904449661952e-07,0.08571157886760619,75.55076257877198,75.55087459880284,79.7347957515002,79.73490777153106,1.0,0.08571157886760619,0,0,0
0.624,1.1201987429038688e-06,-0.06973451536151903,-3.141582980347174,8.747286698555036e-11,2.530291875228055e-05,-1.819368025340952e-11,0.005308917673340602,-2.0677912006053463e-07,0.08571165840094613,75.55076753970165,75.5508795597509,79.7347878555553,79.73489987560454,1.0,0.08571165840094613,0,0,0
0.632,1.1201992681611704e-06,-0.06973430918118202,-3.141582980347078,6.612641869430118e-11,2.5630024314630127e-05,-1.680090511037053e-11,0.005308904623258365,-2.0677920840371754e-07,0.0857117390138302,75.55077257136843,75.5508845914275,79.7347798621907,79.73489188224978,1.0,0.0857117390138302,0,0,0
0.64,1.1201996669525696e-06,-0.06973410033671357,-3.1415829803469713,5.050046384123432e-11,2.5961199221726556e-05,-1.5792998887490668e-11,0.005308891411088534,-2.0677930644974122e-07,0.08571182070955391,75.55077767414109,75.55088969420878,79.73477177194546,79.73488379201315,1.0,0.08571182070955391,0,0,0
0.648,1.1201999580708521e-06,-0.06973388880173387,-3.141582980346854,3.720164642556547e-11,2.6295653367021556e-05,-1.4965715903274947e-11,0.005308878035263656,-2.0677941303814257e-07,0.08571190349073546,75.55078284842047,75.55089486849069,79.73476358521778,79.734875605288,1.0,0.08571190349073546,0,0,0
0.656,1.1202001737171567e-06,-0.06973367455517115,-3.1415829803467297,2.7883539700213493e-11,2.6632726919617204e-05,-1.4417485105330125e-11,0.005308864494565649,-2.067795260018636e-07,0.08571198735945437,75.55078809449131,75.55090011456446,79.73475530234774,79.73486732242088,1.0,0.08571198735945437,0,0,0
0.664,1.1202003260766535e-06,-0.06973345758026474,-3.141582980346599,2.0072817589649854e-11,2.6971883972594955e-05,-1.3974708039621533e-11,0.005308850788059677,-2.0677964460200742e-07,0.08571207231740463,75.55079341254671,75.55090543261946,79.73474692359466,79.7348589436674,1.0,0.08571207231740463,0,0,0
0.672,1.1202004234815986e-06,-0.06973323786342314,-3.141582980346462,1.3295302390510273e-11,2.7312730569739028e-05,-1.3627136536680772e-11,0.005308836915019308,-2.067797682727202e-07,0.08571215836590287,75.550798802823,75.55091082289194,79.73473844916724,79.73485046923618,1.0,0.08571215836590287,0,0,0
0.68,1.120200495223853e-06,-0.06973301539401001,-3.141582980346321,1.0137203793557995e-11,2.7654899347438748e-05,-1.3503871324823032e-11,0.005308822874912439,-2.067798950845217e-07,0.08571224550603515,75.5508042654011,75.55091628547089,79.73472987924299,79.73484189931278,1.0,0.08571224550603515,0,0,0
0.6880000000000001,1.1202005278542573e-06,-0.06973279016332884,-3.1415829803461754,5.318089823668908e-12,2.799814918558032e-05,-1.3295684159838431e-11,0.005308808667334505,-2.0678002594455898e-07,0.08571233373865414,75.5508098004442,75.55092182050763,79.73472121394556,79.73483323400899,1.0,0.08571233373865414,0,0,0
0.6960000000000001,1.1202005500933578e-06,-0.06973256216444747,-3.1415829803460267,4.052984574068902e-12,2.8342260756646595e-05,-1.3318428122424275e-11,0.00530879429199671,-2.0678015893959257e-07,0.08571242306442847,75.55081540804254,75.55092742810565,79.73471245338787,79.73482447345098,1.0,0.08571242306442847,0,0,0
0.704,1.1202005456208957e-06,-0.06973233139189758,-3.1415829803458744,7.639737275599527e-13,2.8687052072086282e-05,-1.3218795692664123e-11,0.005308779748706763,-2.0678029517095334e-07,0.08571251348392436,75.55082108824293,75.55093310829902,79.73470359765263,79.73481561770872,1.0,0.08571251348392436,0,0,0
0.712,1.1202005403104479e-06,-0.06973209784119115,-3.1415829803457194,6.820254924144784e-13,2.9032401305588897e-05,-1.3328239791067525e-11,0.005308765037336571,-2.0678043290671598e-07,0.0857126049975582,75.55082684114119,75.55093886119657,79.73469464681004,79.73480666686542,1.0,0.0857126049975582,0,0,0
0.72,1.1202005156403107e-06,-0.0697318615088136,-3.1415829803455613,-1.6985067669960313e-12,2.937818742318231e-05,-1.3298478521678736e-11,0.005308750157822284,-2.0678057339171781e-07,0.08571269760569422,75.55083266675696,75.55094468680512,79.73468560091094,79.7347976209591,1.0,0.08571269760569422,0,0,0
0.728,1.1202004961893603e-06,-0.06973162239198069,-3.1415829803454014,-1.0319255163468594e-12,2.9724319642401515e-05,-1.3454606871888008e-11,0.005308735110147941,-2.0678071498173405e-07,0.08571279130861145,75.55083856512707,75.55095058517463,79.73467646000663,79.73478848005419,1.0,0.08571279130861145,0,0,0
0.736,1.1202004614469875e-06,-0.06973138048826055,-3.1415829803452384,-2.907013570910432e-12,3.0070754172829186e-05,-1.3471352129003959e-11,0.0053087198943204406,-2.067808590444146e-07,0.08571288610651662,75.55084453633029,75.55095655637061,79.73466722411757,79.73477924415789,1.0,0.08571288610651662,0,0,0
0.744,1.1202004354218083e-06,-0.06973113579601466,-3.1415829803450737,-1.8090587400464667e-12,3.0417392375285356e-05,-1.365700894747922e-11,0.00530870451039947,-2.0678100397769041e-07,0.08571298199961011,75.55085058031246,75.55096260035238,79.7346578932886,79.73476991332852,1.0,0.08571298199961011,0,0,0
0.752,1.1202004002493947e-06,-0.06973088831360473,-3.1415829803449062,-2.923022559384431e-12,3.0764234245151195e-05,-1.3723760646641854e-11,0.005308688958443927,-2.0678115096208426e-07,0.08571307898801278,75.55085669717724,75.55096871721142,79.73464846752503,79.73476048755921,1.0,0.08571307898801278,0,0,0
0.76,1.1202003640850412e-06,-0.06973063803995351,-3.141582980344737,-3.0282740214240137e-12,3.11112100154388e-05,-1.3845242452109376e-11,0.0053086732385502905,-2.0678129947978202e-07,0.08571317707185498,75.55086288687626,75.5509749069066,79.73463894685345,79.7347509668838,1.0,0.08571317707185498,0,0,0
0.768,1.1202003328513511e-06,-0.06973038497415775,-3.1415829803445656,-2.399735240267072e-12,3.145829807492716e-05,-1.401120438808937e-11,0.005308657350826154,-2.0678144908686896e-07,0.08571327625122771,75.55086914943888,75.55098116946738,79.73462933129218,79.73474135132068,1.0,0.08571327625122771,0,0,0
0.776,1.120200296910314e-06,-0.06973012911530468,-3.1415829803443924,-2.9656693331052777e-12,3.1805499596597996e-05,-1.4115438139976985e-11,0.005308641295378211,-2.0678160047188357e-07,0.08571337652618757,75.55087548491677,75.55098750494052,79.73461962083586,79.73473164085961,1.0,0.08571337652618757,0,0,0
0.784,1.1202002667139395e-06,-0.06972987046297266,-3.141582980344217,-2.236239963844405e-12,3.2152753532015404e-05,-1.4286621675202458e-11,0.005308625072346113,-2.0678175288565506e-07,0.08571347789681508,75.55088189324296,75.55099391326515,79.73460981551425,79.73472183553643,1.0,0.08571347789681508,0,0,0
0.792,1.1202002322699567e-06,-0.06972960901648337,-3.1415829803440394,-2.743332682727176e-12,3.2500091787428526e-05,-1.4395790009970844e-11,0.005308608681851748,-2.0678190703803685e-07,0.08571358036313487,75.55088837450721,75.55100039452496,79.73459991531264,79.7347119353304,1.0,0.08571358036313487,0,0,0
0.8,1.1202002038288335e-06,-0.06972934477560153,-3.1415829803438604,-1.9839613557372576e-12,3.284745929194088e-05,-1.457253832602994e-11,0.0053085921240470235,-2.0678206219435257e-07,0.08571368392520154,75.55089492863934,75.55100694865575,79.73458992025684,79.73470194027325,1.0,0.08571368392520154,0,0,0
0.808,1.1202001716172024e-06,-0.06972907773993937,-3.1415829803436788,-2.4316779365404313e-12,3.3194874998711935e-05,-1.4677785043185848e-11,0.005308575399073173,-2.0678221905216755e-07,0.08571378858304313,75.55090155568924,75.55101357570153,79.73457983033559,79.73469185034789,1.0,0.08571378858304313,0,0,0
0.8160000000000001,1.1202001451790014e-06,-0.06972880790921354,-3.141582980343496,-1.7010332276982148e-12,3.3542325926489016e-05,-1.486156617522077e-11,0.005308558507078592,-2.0678237691808598e-07,0.08571389433666912,75.55090825566106,75.55102027567216,79.734569645562,79.7346816655731,1.0,0.08571389433666912,0,0,0
0.8240000000000001,1.120200115086358e-06,-0.0697285352832776,-3.14158298034331,-2.134283067952653e-12,3.388979506377671e-05,-1.496527043935266e-11,0.005308541448220391,-2.0678253647034982e-07,0.08571400118611891,75.55091502852578,75.55102704853302,79.7345593659323,79.73467138593954,1.0,0.08571400118611891,0,0,0
0.8320000000000001,1.1202000907066366e-06,-0.06972825986190352,-3.1415829803431228,-1.4092145373288146e-12,3.423729253903326e-05,-1.5148832434090845e-11,0.005308524222650685,-2.0678269702523088e-07,0.08571410913138774,75.55092187432541,75.55103389433165,79.73454899145455,79.73466101146079,1.0,0.08571410913138774,0,0,0
0.84,1.1202000625311141e-06,-0.06972798164498804,-3.1415829803429336,-1.861995069392514e-12,3.458480285970802e-05,-1.5254116734914102e-11,0.005308506830529455,-2.067828592676108e-07,0.08571421817250316,75.55092879302983,75.55104081303234,79.7345385221234,79.73465054212592,1.0,0.08571421817250316,0,0,0
0.848,1.1202000402525503e-06,-0.06972770063247895,-3.1415829803427426,-1.115755891550543e-12,3.493231966120967e-05,-1.5430595996540224e-11,0.00530848927202035,-2.0678302249562704e-07,0.08571432830947509,75.55093578464214,75.55104780464394,79.73452795795156,79.73463997795336,1.0,0.08571432830947509,0,0,0
0.856,1.1202000172991678e-06,-0.06972741682414754,-3.1415829803425495,-1.18018342658789e-12,3.5279864903372594e-05,-1.5566518631852193e-11,0.005308471547274943,-2.0678318718303765e-07,0.08571443954229528,75.55094284920523,75.55105486920459,79.73451729892429,79.73462931892365,1.0,0.08571443954229528,0,0,0
0.864,1.1201999886697232e-06,-0.06972713022004842,-3.1415829803423536,-1.863915430743097e-12,3.5627403352118886e-05,-1.565547087406126e-11,0.005308453656463888,-2.0678335363961336e-07,0.08571455187099127,75.55094998665942,75.55106200665455,79.73450654505561,79.73461856505074,1.0,0.08571455187099127,0,0,0
0.872,1.1201999716254986e-06,-0.069726840820045,-3.141582980342157,-4.1316687233378783e-13,3.5974958774158446e-05,-1.5881633311961423e-11,0.005308435599745018,-2.0678352071094738e-07,0.08571466529554773,75.55095719705602,75.55106921705234,79.73449569634118,79.7346077163375,1.0,0.08571466529554773,0,0,0
0.88,1.1201999443693643e-06,-0.06972654862414922,-3.1415829803419575,-1.6607819908833018e-12,3.6322512723968265e-05,-1.593609892944812e-11,0.005308417377286004,-2.067836898529464e-07,0.08571477981598886,75.5509644803571,75.55107650034822,79.73448475278059,79.73459677277171,1.0,0.08571477981598886,0,0,0
0.888,1.120199928542869e-06,-0.06972625363226102,-3.1415829803417563,-2.2737253054569925e-13,3.667007909797178e-05,-1.6160806068202543e-11,0.005308398989247121,-2.0678385961047896e-07,0.08571489543229782,75.55097183659898,75.55108385659138,79.73447371437645,79.73458573436885,1.0,0.08571489543229782,0,0,0
0.896,1.120199902250534e-06,-0.06972595584438049,-3.141582980341553,-1.5046049931854562e-12,3.701764547299329e-05,-1.621575649981472e-11,0.005308380435795221,-2.0678403144497887e-07,0.08571501214449254,75.55097926575384,75.55109128574107,79.73446258112573,79.73457460111295,1.0,0.08571501214449254,0,0,0
0.904,1.1201998875664056e-06,-0.06972565526053869,-3.1415829803413478,-4.876856264146705e-14,3.7365207986642095e-05,-1.6433096561805157e-11,0.005308361717099336,-2.0678420387737584e-07,0.08571512995257513,75.5509867678201,75.55109878780875,79.73445135303645,79.7345633730251,1.0,0.08571512995257513,0,0,0
0.912,1.1201998620076659e-06,-0.06972535188055964,-3.14158298034114,-1.3788366333683894e-12,3.771279236324254e-05,-1.649255814574639e-11,0.005308342833314397,-2.0678437840365837e-07,0.08571524885653095,75.55099434284617,75.55110636282961,79.73444003009502,79.73455205007846,1.0,0.08571524885653095,0,0,0
0.92,1.1201998480532334e-06,-0.06972504570461344,-3.1415829803409308,7.663162622206139e-14,3.806035561177406e-05,-1.6706567851166687e-11,0.005308323784618901,-2.0678455352047766e-07,0.08571536885638348,75.55100199075308,75.55111401073803,79.73442861231867,79.73454063230362,1.0,0.08571536885638348,0,0,0
0.928,1.1201998231239893e-06,-0.06972473673249714,-3.1415829803407194,-1.2658322296032728e-12,3.840794407725769e-05,-1.6764737416476882e-11,0.005308304571165892,-2.0678473072934424e-07,0.08571548995211174,75.55100971162794,75.55112173160772,79.73441709968962,79.7345291196694,1.0,0.08571548995211174,0,0,0
0.936,1.12019980962653e-06,-0.06972442496435802,-3.141582980340506,1.681865436234815e-13,3.8755514239579715e-05,-1.697959174540611e-11,0.005308285193132159,-2.0678490853084398e-07,0.08571561214373385,75.55101750539167,75.55112952537296,79.73440549222467,79.73451751220595,1.0,0.08571561214373385,0,0,0
0.9440000000000001,1.1201997889174919e-06,-0.06972411040013037,-3.1415829803402904,-7.057646992230604e-13,3.910309256340846e-05,-1.7056304680599584e-11,0.005308265650680155,-2.0678508815923053e-07,0.08571573543124884,75.55102537209056,75.55113739206804,79.73439378991326,79.73450580989073,1.0,0.08571573543124884,0,0,0
0.9520000000000001,1.120199767706165e-06,-0.06972379303971805,-3.1415829803400723,-7.506679707207654e-13,3.945068284786194e-05,-1.7191369729944898e-11,0.005308245943970252,-2.06785269186096e-07,0.08571585981464197,75.55103331173662,75.55114533171188,79.734381992754,79.73449401272926,1.0,0.08571585981464197,0,0,0
0.96,1.1201997517365902e-06,-0.06972347288328477,-3.1415829803398534,-8.539275194932773e-14,3.9798252775927374e-05,-1.7356822588003987e-11,0.005308226073180197,-2.0678545118341009e-07,0.08571598529393547,75.55104132426894,75.55115334424394,79.73437010076046,79.73448212073546,1.0,0.08571598529393547,0,0,0
0.968,1.120199730745545e-06,-0.06972314993063629,-3.141582980339631,-6.863377779038058e-13,4.014584685341226e-05,-1.745759077354348e-11,0.005308206038463853,-2.0678563487658747e-07,0.08571611186910771,75.55104940976818,75.55116142973989,79.73435811391266,79.73447013388437,1.0,0.08571611186910771,0,0,0
0.976,1.120199714831401e-06,-0.06972282418192702,-3.1415829803394075,-4.156114390805787e-14,4.049342172706001e-05,-1.762393345803618e-11,0.0053081858399983695,-2.0678581954176057e-07,0.08571623954017624,75.55105756815857,75.55116958812997,79.73434603223075,79.73445805220214,1.0,0.08571623954017624,0,0,0
0.984,1.1201996941497821e-06,-0.06972249563708294,-3.1415829803391815,-6.145703120489818e-13,4.08410058141113e-05,-1.771740815490043e-11,0.005308165477945534,-2.0678600588231444e-07,0.08571636830713933,75.55106579948591,75.5511778194541,79.73433385569925,79.73444587566743,1.0,0.08571636830713933,0,0,0
0.992,1.120199678148512e-06,-0.06972216429607364,-3.1415829803389537,-1.534635487902452e-14,4.1188593675567e-05,-1.7888652017997734e-11,0.005308144952470201,-2.067861932079257e-07,0.08571649816998278,75.55107410375064,75.55118612371842,79.73432158432772,79.7344336042955,1.0,0.08571649816998278,0,0,0
1.0,1.1201996574562295e-06,-0.0697218301589567,-3.1415829803387236,-5.787667637357155e-13,4.153617438655764e-05,-1.7979373315746558e-11,0.005308124263742997,-2.0678638219629715e-07,0.08571662912872692,75.55108248092102,75.5511945008856,79.73430921810964,79.73442123807422,1.0,0.08571662912872692,0,0,0
1.008,1.1201996414302107e-06,-0.06972149322566876,-3.1415829803384914,1.6813833816769508e-14,4.188376295739037e-05,-1.8149691306079783e-11,0.00530810341192646,-2.0678657216326906e-07,0.08571676118335175,75.55109093103673,75.5512029510009,79.73429675705094,79.73440877701512,1.0,0.08571676118335175,0,0,0
1.016,1.1201996205772828e-06,-0.06972115349623989,-3.141582980338257,-5.615976400489924e-13,4.223134780612367e-05,-1.824169294691028e-11,0.005308082397189301,-2.0678676379156798e-07,0.08571689433387268,75.5510994540659,75.55121147402684,79.73428420114467,79.73439622110561,1.0,0.08571689433387268,0,0,0
1.024,1.120199604628334e-06,-0.06972081097072566,-3.141582980338021,6.182426225463055e-14,4.2578925737290574e-05,-1.8404713867674027e-11,0.005308061219702176,-2.067869563780401e-07,0.08571702858028979,75.5511080500101,75.5512200699707,79.73427155040216,79.73438357036275,1.0,0.08571702858028979,0,0,0
1.032,1.120199587100869e-06,-0.06972046564898488,-3.1415829803377826,-1.1435157558368166e-13,4.2926521225490695e-05,-1.8527597008576527e-11,0.005308039879622278,-2.0678715039060167e-07,0.08571716392258699,75.55111671891078,75.55122873886927,79.73425880480741,79.7343708247659,1.0,0.08571716392258699,0,0,0
1.04,1.1201995630132625e-06,-0.0697201175311431,-3.1415829803375415,-9.07397772142681e-13,4.327410110199046e-05,-1.860353561116108e-11,0.005308018377124829,-2.067873461377641e-07,0.08571730036078558,75.55112546070757,75.55123748066205,79.73424596437394,79.73435798432843,1.0,0.08571730036078558,0,0,0
1.048,1.1201995497245552e-06,-0.06971976661712156,-3.141582980337299,4.461532511728645e-13,4.362169077385618e-05,-1.881730480547483e-11,0.0053079967123713795,-2.0678754245871746e-07,0.08571743789486516,75.5511342754508,75.55124629540668,79.73423302909654,79.73434504905242,1.0,0.08571743789486516,0,0,0
1.056,1.120199525346108e-06,-0.06971941290695113,-3.1415829803370543,-9.081667938993882e-13,4.396927660395933e-05,-1.886140319068821e-11,0.005307974885530614,-2.0678774081340835e-07,0.08571757652484105,75.55114316310942,75.55125518306012,79.73421999897327,79.73433201892398,1.0,0.08571757652484105,0,0,0
1.064,1.120199511982078e-06,-0.06971905640068853,-3.1415829803368074,4.743209960466184e-13,4.431685539247368e-05,-1.906791462590149e-11,0.005307952896773271,-2.0678793972093923e-07,0.0857177162507133,75.55115212368133,75.55126414363349,79.73420687401185,79.734318893964,1.0,0.0857177162507133,0,0,0
1.072,1.120199487211196e-06,-0.06971869709817878,-3.1415829803365583,-9.214732448001035e-13,4.466445343252803e-05,-1.9117061066194732e-11,0.005307930746255504,-2.0678814067315047e-07,0.0857178570724656,75.55116115721482,75.55127317716169,79.73419365419868,79.73430567414555,1.0,0.0857178570724656,0,0,0
1.08,1.120199473562042e-06,-0.06971833499960926,-3.1415829803363073,4.763468584336592e-13,4.5012028189287596e-05,-1.932118682330766e-11,0.005307908434156877,-2.0678834216248838e-07,0.08571799899012,75.55117026363055,75.55128228357887,79.73418033955073,79.73429235949905,1.0,0.08571799899012,0,0,0
1.088,1.12019944850323e-06,-0.0697179701047914,-3.1415829803360538,-9.197709090778071e-13,4.535962637979137e-05,-1.9369604976361722e-11,0.0053078859606312395,-2.0678854568831584e-07,0.08571814200365452,75.55117944301549,75.55129146295849,79.73416693005021,79.73427894999321,1.0,0.08571814200365452,0,0,0
1.096,1.1201994344570462e-06,-0.06971760241388432,-3.141582980335799,4.625372362480094e-13,4.570720479750094e-05,-1.9574873617615095e-11,0.0053078633258561575,-2.0678874975016184e-07,0.08571828611308635,75.55118869529039,75.55130071523476,79.73415342571386,79.73426544565822,1.0,0.08571828611308635,0,0,0
1.104,1.1201994092535925e-06,-0.06971723192681782,-3.141582980335541,-9.000762601613369e-13,4.605479194277832e-05,-1.961631751661989e-11,0.005307840529993543,-2.067889558251716e-07,0.08571843131841358,75.55119802050413,75.55131004044327,79.73413982652932,79.73425184646845,1.0,0.08571843131841358,0,0,0
1.112,1.1201993947661197e-06,-0.06971685864356472,-3.141582980335282,4.432934098456943e-13,4.640238245452312e-05,-1.9826784033371725e-11,0.005307817573208473,-2.0678916244577686e-07,0.08571857761962182,75.55120741865395,75.5513194385943,79.73412613250292,79.73423815244328,1.0,0.08571857761962182,0,0,0
1.12,1.1201993728093278e-06,-0.06971648256419996,-3.14158298033502,-4.60325788017512e-13,4.674996366845802e-05,-1.9891692968116456e-11,0.00530779445567249,-2.067893708177028e-07,0.08571872501673139,75.55121688970873,75.55132890964508,79.73411234363338,79.73422436356974,1.0,0.08571872501673139,0,0,0
1.1280000000000001,1.120199350002747e-06,-0.06971610368860162,-3.141582980334756,-5.499539104807656e-13,4.709756002407751e-05,-2.0016691849354625e-11,0.005307771177544232,-2.067895805195791e-07,0.0857188735097213,75.55122643371912,75.55133845365303,79.73409845991516,79.73421047984907,1.0,0.0857188735097213,0,0,0
1.1360000000000001,1.1201993320111404e-06,-0.06971572201691208,-3.14158298033449,6.644284368070231e-14,4.744513868095778e-05,-2.0174661916106802e-11,0.005307747739000029,-2.0678979112457821e-07,0.08571902309860846,75.55123605062408,75.55134807055742,79.73408448136144,79.73419650129478,1.0,0.08571902309860846,0,0,0
1.1440000000000001,1.120199309014224e-06,-0.0697153375490612,-3.1415829803342215,-5.33884580118993e-13,4.779272606747095e-05,-2.0259842526422597e-11,0.005307724140201767,-2.0679000333556557e-07,0.085719173783391,75.55124574046631,75.55135776039616,79.73407040795784,79.73418242788769,1.0,0.085719173783391,0,0,0
1.1520000000000001,1.1201992905402148e-06,-0.06971495028502202,-3.1415829803339514,4.222006939617592e-14,4.814031679635319e-05,-2.0422899239479682e-11,0.0053077003813143675,-2.0679021646003688e-07,0.08571932556405443,75.55125550324635,75.55136752317549,79.73405623971408,79.73416825964321,1.0,0.08571932556405443,0,0,0
1.16,1.1201992671837603e-06,-0.06971456022485498,-3.1415829803336788,-5.427676463061858e-13,4.848790001018298e-05,-2.0505611113887896e-11,0.005307676462508626,-2.0679043117490382e-07,0.08571947844061892,75.5512653389326,75.55137735885823,79.73404197662389,79.73415399654952,1.0,0.08571947844061892,0,0,0
1.168,1.120199248300605e-06,-0.06971416736849953,-3.1415829803334043,2.913716357828808e-14,4.883549076005235e-05,-2.0667708427433994e-11,0.005307652383947176,-2.067906467971061e-07,0.08571963241306438,75.55127524756426,75.55138726748916,79.73402761869272,79.73413963861762,1.0,0.08571963241306438,0,0,0
1.176,1.120199224430681e-06,-0.06971377171598774,-3.141582980333127,-5.688475877643256e-13,4.918307751904092e-05,-2.0751686248166142e-11,0.005307628145798771,-2.067908640072944e-07,0.08571978748140605,75.5512852291096,75.55139724903091,79.73401316591381,79.73412518583513,1.0,0.08571978748140605,0,0,0
1.184,1.12019920533418e-06,-0.06971337326737712,-3.1415829803328483,4.05513711276047e-14,4.9530657125943464e-05,-2.0907113080644703e-11,0.00530760374823408,-2.0679108209924994e-07,0.08571994364564392,75.5512952835704,75.551407303491,79.73399861829878,79.73411063821939,1.0,0.08571994364564392,0,0,0
1.192,1.1201991809407814e-06,-0.06971297202251361,-3.141582980332567,-5.961201758151305e-13,4.987825588912446e-05,-2.099630259658095e-11,0.0053075791914093395,-2.0679130178868484e-07,0.08572010090576168,75.55130541099084,75.55141743090775,79.73398397582989,79.7340959957468,1.0,0.08572010090576168,0,0,0
1.2,1.1201991614565505e-06,-0.06971256798158508,-3.1415829803322843,2.8292884536281865e-14,5.022583129222021e-05,-2.114922962103618e-11,0.005307554475503906,-2.0679152234442523e-07,0.08572025926178135,75.55131561129548,75.55142763121168,79.733969238528,79.7340812584442,1.0,0.08572025926178135,0,0,0
1.208,1.1201991366506229e-06,-0.06971216114440361,-3.1415829803319983,-6.095047843603327e-13,5.057343005602937e-05,-2.1237640215612857e-11,0.005307529600671726,-2.067917444898815e-07,0.08572041871368091,75.55132588456775,75.5514379044802,79.73395440637185,79.7340664262843,1.0,0.08572041871368091,0,0,0
1.216,1.120199116669817e-06,-0.06971175151112884,-3.141582980331711,4.422471356101694e-15,5.0921008982134714e-05,-2.1392011906182915e-11,0.00530750456709031,-2.0679196749792393e-07,0.08572057926147755,75.55133623073155,75.55144825064323,79.73393947938132,79.734051499293,1.0,0.08572057926147755,0,0,0
1.224,1.1201990952553735e-06,-0.06971133908170546,-3.1415829803314215,-1.5323817982409271e-13,5.126859478124094e-05,-2.1499569636376024e-11,0.005307479374922583,-2.0679219182443646e-07,0.08572074090516954,75.55134664982982,75.55145866973903,79.73392445754259,79.7340364774518,1.0,0.08572074090516954,0,0,0
1.232,1.1201990667742386e-06,-0.06971092385604583,-3.141582980331129,-1.0091493060342612e-12,5.161619147006476e-05,-2.157455627320499e-11,0.005307454024329181,-2.0679241781471186e-07,0.08572090364474157,75.55135714187783,75.55146916178249,79.73390934085764,79.7340213607623,1.0,0.08572090364474157,0,0,0
1.24,1.1201990493608546e-06,-0.06971050583432101,-3.141582980330835,3.80295563948824e-13,5.196376690307769e-05,-2.177130373139953e-11,0.005307428515488391,-2.0679264426279035e-07,0.0857210674802154,75.55136770681119,75.55147972671688,79.73389412933665,79.73400614924233,1.0,0.0857210674802154,0,0,0
1.248,1.1201990204711616e-06,-0.06971008501634277,-3.1415829803305386,-1.0238476584140386e-12,5.231136572361581e-05,-2.1812385458703594e-11,0.0053074028485541325,-2.0679287266797003e-07,0.08572123241156901,75.5513783447137,75.5514903646137,79.73387882296282,79.73399084286282,1.0,0.08572123241156901,0,0,0
1.256,1.1201990025261028e-06,-0.06970966140227071,-3.14158298033024,3.5219294361108437e-13,5.265894470665408e-05,-2.20103966252078e-11,0.005307377023703819,-2.067931015287882e-07,0.08572139843881957,75.55138905550635,75.55150107540732,79.73386342175317,79.73397544165414,1.0,0.08572139843881957,0,0,0
1.264,1.1201989733827976e-06,-0.06970923499203524,-3.141582980329939,-1.0152666432364253e-12,5.3006532350660665e-05,-2.2044734463919117e-11,0.005307351041099306,-2.0679333232150706e-07,0.08572156556196517,75.55139983923796,75.55151185913327,79.73384792569537,79.73395994559068,1.0,0.08572156556196517,0,0,0
1.272,1.120198954900916e-06,-0.06970880578560962,-3.1415829803296367,3.2157790959652975e-13,5.3354123310188914e-05,-2.2247945517836923e-11,0.005307324900905588,-2.0679356357957734e-07,0.08572173378099136,75.55141069590569,75.55152271580182,79.73383233479565,79.73394435469179,1.0,0.08572173378099136,0,0,0
1.28,1.120198925330449e-06,-0.06970837378305458,-3.141582980329331,-1.032178052498738e-12,5.3701706726962054e-05,-2.2279719254871096e-11,0.005307298603293112,-2.0679379675474322e-07,0.08572190309591829,75.55142162548131,75.55153364537179,79.73381664905114,79.73392866894162,1.0,0.08572190309591829,0,0,0
1.288,1.1201989064015863e-06,-0.06970793898430952,-3.1415829803290243,3.0608051800076494e-13,5.4049297665343834e-05,-2.2482268706963727e-11,0.005307272148424774,-2.0679403038622502e-07,0.08572207350672584,75.55143262800077,75.55154464789202,79.733800868464,79.73391288835525,1.0,0.08572207350672584,0,0,0
1.296,1.1201988763130342e-06,-0.06970750138940679,-3.1415829803287143,-1.0584786472558935e-12,5.439688458927562e-05,-2.2515434078456185e-11,0.0053072455364689824,-2.067942659314903e-07,0.08572224501342925,75.55144370343572,75.55155572332123,79.73378499303095,79.73389701291646,1.0,0.08572224501342925,0,0,0
1.304,1.120198857173032e-06,-0.06970706099840414,-3.141582980328403,3.1619636941836267e-13,5.47444643413506e-05,-2.2711273311769158e-11,0.005307218767596586,-2.0679450190792375e-07,0.08572241761602854,75.55145485178424,75.5515668716706,79.7337690227598,79.73388104264616,1.0,0.08572241761602854,0,0,0
1.312,1.1201988301186008e-06,-0.06970661781116193,-3.141582980328089,-6.445954757638243e-13,5.509206143744771e-05,-2.2775483782124855e-11,0.005307191841964445,-2.0679473956179095e-07,0.08572259131450756,75.55146607309123,75.55157809297296,79.73375295763807,79.7338649775198,1.0,0.08572259131450756,0,0,0
1.32,1.1201988025755673e-06,-0.06970617182780732,-3.141582980327773,-6.849684163876786e-13,5.5439642731883174e-05,-2.2884238236403043e-11,0.005307164759747948,-2.0679497842271017e-07,0.08572276610888743,75.55147736729279,75.55158938717167,79.73373679767576,79.73384881755464,1.0,0.08572276610888743,0,0,0
1.328,1.1201987795222752e-06,-0.06970572304826292,-3.1415829803274544,-1.1079443972515413e-13,5.5787233653778034e-05,-2.303964451527863e-11,0.005307137521108396,-2.0679521810604587e-07,0.08572294199914782,75.55148873444263,75.55160075432035,79.7337205428711,79.73383256274882,1.0,0.08572294199914782,0,0,0
1.336,1.1201987514758266e-06,-0.06970527147256067,-3.1415829803271342,-7.112586770746724e-13,5.613482059839673e-05,-2.311656793107751e-11,0.005307110126214515,-2.0679545929504383e-07,0.08572311898530394,75.55150017450634,75.55161219438006,79.73370419321878,79.7338162130925,1.0,0.08572311898530394,0,0,0
1.344,1.1201987281716728e-06,-0.0697048171007583,-3.1415829803268114,-1.0356162532987678e-13,5.6482400367291626e-05,-2.3265039052165085e-11,0.005307082575236821,-2.0679570128289402e-07,0.08572329706735582,75.55151168748533,75.55162370735793,79.7336877487301,79.73379976860271,1.0,0.08572329706735582,0,0,0
1.352,1.1201986995477577e-06,-0.06970435993270181,-3.1415829803264863,-7.428317104696991e-13,5.682999927999392e-05,-2.3347160375503348e-11,0.0053070548683313845,-2.0679594478590806e-07,0.08572347624528706,75.55152327342407,75.55163529329255,79.73367120938761,79.73378322925609,1.0,0.08572347624528706,0,0,0
1.36,1.1201986758004392e-06,-0.06970389996857927,-3.141582980326159,-1.2029763343152029e-13,5.7177574814595775e-05,-2.34930698085757e-11,0.0053070270056776725,-2.0679618907259487e-07,0.08572365651911973,75.55153493224716,75.55164695211451,79.73365457521228,79.73376659507963,1.0,0.08572365651911973,0,0,0
1.368,1.1201986467368679e-06,-0.06970343720820293,-3.1415829803258295,-7.59111504508016e-13,5.752517369415198e-05,-2.3574578839537187e-11,0.005306998987429298,-2.067964348657588e-07,0.08572383788883182,75.55154666403763,75.5516586839008,79.7336378461824,79.73374986604557,1.0,0.08572383788883182,0,0,0
1.3760000000000001,1.1201986224637166e-06,-0.06970297165173232,-3.1415829803254978,-1.4732767844032072e-13,5.7872752731907524e-05,-2.3721937305368545e-11,0.005306970813763759,-2.0679668143895302e-07,0.08572402035444046,75.55155846871999,75.55167048858193,79.73362102231847,79.73373304218042,1.0,0.08572402035444046,0,0,0
1.3840000000000001,1.120198593182887e-06,-0.06970250329909787,-3.1415829803251643,-7.495217090019105e-13,5.822034042260118e-05,-2.3796702600787567e-11,0.005306942484842911,-2.0679692949354328e-07,0.08572420391594376,75.55157034633956,75.55168236619738,79.73360410360459,79.73371612346241,1.0,0.08572420391594376,0,0,0
1.3920000000000001,1.1201985683638794e-06,-0.06970203215027296,-3.1415829803248285,-1.7679071596625846e-13,5.856793142071489e-05,-2.3949239227798722e-11,0.005306914000831386,-2.0679717833787594e-07,0.08572438857332729,75.55158229689702,75.55169431675351,79.73358709005056,79.73369910990705,1.0,0.08572438857332729,0,0,0
1.4000000000000001,1.1201985422102525e-06,-0.06970155820533278,-3.14158298032449,-3.218312900375118e-13,5.8915513077017546e-05,-2.40472340360861e-11,0.005306885361900868,-2.0679742840275915e-07,0.08572457432661135,75.5515943203577,75.55170634021128,79.73356998165151,79.7336820015051,1.0,0.08572457432661135,0,0,0
1.408,1.1201985089776704e-06,-0.06970108146415592,-3.1415829803241486,-1.179004815272235e-12,5.9263109820571004e-05,-2.411453656673911e-11,0.005306856568209728,-2.0679768004013e-07,0.08572476117577493,75.55160641677581,75.55171843662434,79.73355277840552,79.73366479825405,1.0,0.08572476117577493,0,0,0
1.416,1.1201984867413996e-06,-0.0697006019268851,-3.1415829803238067,1.998283148784474e-13,5.961068882624142e-05,-2.4305843958919538e-11,0.0053068276199340625,-2.067979320479071e-07,0.08572494912083495,75.55161858608692,75.55173060593599,79.73353548032237,79.73364750017144,1.0,0.08572494912083495,0,0,0
1.424,1.1201984532748716e-06,-0.06970011959345036,-3.141582980323461,-1.1694431692592697e-12,5.9958276524943295e-05,-2.4333178850714412e-11,0.005306798517235756,-2.067981859049058e-07,0.0857251381617895,75.55163082833703,75.55174284818001,79.733518087391,79.73363010723399,1.0,0.0857251381617895,0,0,0
1.432,1.1201984304614065e-06,-0.06969963446382509,-3.1415829803231143,1.6660027021568536e-13,6.030586753499545e-05,-2.4529442462031282e-11,0.005306769260279398,-2.0679844014394852e-07,0.08572532829862411,75.55164314352322,75.55175516336661,79.73350059961766,79.73361261946104,1.0,0.08572532829862411,0,0,0
1.44,1.1201983965698901e-06,-0.06969914653807,-3.1415829803227644,-1.183697442126569e-12,6.065345099446574e-05,-2.4554562444939268e-11,0.005306739849235617,-2.0679869621469067e-07,0.0857255195313589,75.55165553161744,75.55176755145474,79.73348301699964,79.73359503683695,1.0,0.0857255195313589,0,0,0
1.448,1.1201983733124618e-06,-0.06969865581612468,-3.1415829803224127,1.519430794227122e-13,6.1001041967094514e-05,-2.4750028125708184e-11,0.0053067102842668384,-2.0679895265941778e-07,0.0857257118599738,75.55166799265534,75.55178001249298,79.73346533953888,79.73357735937653,1.0,0.0857257118599738,0,0,0
1.456,1.120198338867063e-06,-0.06969816229802138,-3.1415829803220587,-1.2139673867227915e-12,6.134862892873098e-05,-2.4776265602082582e-11,0.005306680565541788,-2.0679921093477303e-07,0.08572590528448401,75.55168052660886,75.55179254644031,79.73344756723228,79.73355958706372,1.0,0.08572590528448401,0,0,0
1.464,1.120198315368663e-06,-0.0696976659838179,-3.1415829803217026,1.607504598960766e-13,6.169620870710756e-05,-2.4965188759502194e-11,0.005306650693230872,-2.067994695577108e-07,0.08572609980488957,75.55169313347588,75.55180515330773,79.73342970008753,79.73354171991937,1.0,0.08572609980488957,0,0,0
1.472,1.1201982803781521e-06,-0.06969716687336022,-3.1415829803213438,-1.2431047021991644e-12,6.204380762916521e-05,-2.499667789276808e-11,0.0053066206674900335,-2.0679973002036008e-07,0.08572629542117408,75.5517058133045,75.55181783313006,79.73341173809084,79.7335237579164,1.0,0.08572629542117408,0,0,0
1.48,1.1201982564188569e-06,-0.0696966649668364,-3.1415829803209827,1.440878621207789e-13,6.239138317365182e-05,-2.518291073178512e-11,0.005306590488498603,-2.0679999081649173e-07,0.08572649213335962,75.55171856601555,75.55183058584149,79.7333936812594,79.73350570108533,1.0,0.08572649213335962,0,0,0
1.488,1.120198220997061e-06,-0.06969616026405867,-3.14158298032062,-1.2579978399899704e-12,6.273898206293277e-05,-2.5213840702562418e-11,0.005306560156410248,-2.0680025344305164e-07,0.08572668994142413,75.55173139169588,75.55184341151548,79.73337552957528,79.73348754939488,1.0,0.08572668994142413,0,0,0
1.496,1.1201981965128237e-06,-0.06969565276518667,-3.1415829803202544,1.1751775675217114e-13,6.308656110456595e-05,-2.5401454211310225e-11,0.005306529671402313,-2.0680051639998298e-07,0.08572688884538479,75.55174429026633,75.55185631008621,79.73335728305531,79.73346930287519,1.0,0.08572688884538479,0,0,0
1.504,1.12019816443619e-06,-0.06969514247016528,-3.1415829803198867,-8.047328265736759e-13,6.343414699958675e-05,-2.545150491572191e-11,0.005306499033637502,-2.068007809162016e-07,0.08572708884523988,75.55175726177278,75.5518692815876,79.7333389416887,79.73345096150352,1.0,0.08572708884523988,0,0,0
1.512,1.1201981314568085e-06,-0.06969462937890691,-3.1415829803195168,-8.965204328739897e-13,6.378174378307563e-05,-2.5559905617932607e-11,0.0053064682432761995,-2.0680104656264085e-07,0.08572728994097407,75.5517703062273,75.55188232603865,79.73332050547415,79.73343252528551,1.0,0.08572728994097407,0,0,0
1.52,1.120198103358982e-06,-0.0696941134915827,-3.1415829803191446,-2.7121704680006517e-13,6.412931929303149e-05,-2.5699089469991788e-11,0.0053064373004965415,-2.0680131290762393e-07,0.08572749213260913,75.55178342356896,75.55189544337875,79.73330197442533,79.73341399423512,1.0,0.08572749213260913,0,0,0
1.528,1.12019806995396e-06,-0.06969359480800452,-3.1415829803187703,-9.105967467073594e-13,6.447691818362794e-05,-2.57736322770178e-11,0.005306406205452294,-2.068015806757958e-07,0.08572769542012301,75.55179661387801,75.5519086336832,79.73328334852191,79.7333953683271,1.0,0.08572769542012301,0,0,0
1.536,1.1201980414195264e-06,-0.0696930733283602,-3.1415829803183937,-2.866292303436909e-13,6.482449373252588e-05,-2.591205835491126e-11,0.005306374958322507,-2.0680184913484014e-07,0.08572789980353769,75.55180987707162,75.55192189687519,79.73326462778577,79.73337664758934,1.0,0.08572789980353769,0,0,0
1.544,1.1201980075593142e-06,-0.06969254905246185,-3.1415829803180144,-9.263681816524397e-13,6.517209262997763e-05,-2.5985935955572742e-11,0.00530634355926092,-2.0680211900873422e-07,0.08572810528283112,75.5518232132326,75.5519352330315,79.73324581219505,79.73335783199396,1.0,0.08572810528283112,0,0,0
1.552,1.12019797848571e-06,-0.06969202198046928,-3.141582980317633,-3.147992445859589e-13,6.551967166919767e-05,-2.6125670919701332e-11,0.005306312008444683,-2.0680238957083367e-07,0.08572831185802052,75.55183662228539,75.55194864208262,79.73322690177021,79.73333892156744,1.0,0.08572831185802052,0,0,0
1.56,1.120197944372046e-06,-0.06969149211231276,-3.1415829803172493,-9.188270563517708e-13,6.586725937644296e-05,-2.619270866102211e-11,0.0053062803060355546,-2.0680266152326952e-07,0.0857285195291039,75.55185010427557,75.55196212406817,79.73320789649559,79.73331991628818,1.0,0.0857285195291039,0,0,0
